{"type":"FeatureCollection","features":[{"type":"Feature","properties":{"marker-color":"#7e7e7e","marker-size":"medium","marker-symbol":"alcohol-shop","Name":"Casual Pint Falls Church","Type":"Pub"},"geometry":{"type":"Point","coordinates":[-77.16130346059799,38.87250438825617]}},{"type":"Feature","properties":{"marker-color":"#7e7e7e","marker-size":"medium","marker-symbol":"beer","Name":"Adroit Theory Brewing","Type":"Brewery"},"geometry":{"type":"Point","coordinates":[-77.72034555673599,39.143980367367774]}},{"type":"Feature","properties":{"marker-color":"#7e7e7e","marker-size":"medium","marker-symbol":"beer","Name":"B Chord Brewing Company","Type":"Brewery"},"geometry":{"type":"Point","coordinates":[-77.82407999038696,39.12127110893672]}},{"type":"Feature","properties":{"marker-color":"#7e7e7e","marker-size":"medium","marker-symbol":"star","Name":"Lost Creek Winery","Type":"Winery"},"geometry":{"type":"Point","coordinates":[-77.49577760696411,39.20031719120432]}},{"type":"Feature","properties":{"marker-color":"#7e7e7e","marker-size":"medium","marker-symbol":"beer","Name":"Barnhouse Brewery","Type":"Brewery"},"geometry":{"type":"Point","coordinates":[-77.49828815460204,39.20428295973623]}},{"type":"Feature","properties":{"marker-color":"#7e7e7e","marker-size":"medium","marker-symbol":"beer","Name":"Bear Chase Brewing Company","Type":"Brewery"},"geometry":{"type":"Point","coordinates":[-77.84593462944031,39.110686904830786]}},{"type":"Feature","properties":{"marker-color":"#7e7e7e","marker-size":"medium","marker-symbol":"beer","Name":"Belly Love Brewing Company","Type":"Brewery"},"geometry":{"type":"Point","coordinates":[-77.70387411117554,39.13771238674941]}},{"type":"Feature","properties":{"marker-color":"#7e7e7e","marker-size":"medium","marker-symbol":"beer","Name":"Beltway Brewing Co.","Type":"Brewery"},"geometry":{"type":"Point","coordinates":[-77.41704940795898,38.99227538951406]}},{"type":"Feature","properties":{"marker-color":"#7e7e7e","marker-size":"medium","marker-symbol":"beer","Name":"Black Hoof Brewing Company","Type":"Brewery"},"geometry":{"type":"Point","coordinates":[-77.5649356842041,39.11506978228898]}},{"type":"Feature","properties":{"marker-color":"#7e7e7e","marker-size":"medium","marker-symbol":"beer","Name":"Black Walnut Brewery","Type":"Brewery"},"geometry":{"type":"Point","coordinates":[-77.56554186344147,39.11290127015258]}},{"type":"Feature","properties":{"marker-color":"#7e7e7e","marker-size":"medium","marker-symbol":"beer","Name":"Crooked Run Fermentation","Type":"Brewery"},"geometry":{"type":"Point","coordinates":[-77.56310105323792,39.11235184765316]}},{"type":"Feature","properties":{"marker-color":"#7e7e7e","marker-size":"medium","marker-symbol":"beer","Name":"Crooked Run Fermentation","Type":"Brewery"},"geometry":{"type":"Point","coordinates":[-77.42277324199677,38.9945184862778]}},{"type":"Feature","properties":{"marker-color":"#7e7e7e","marker-size":"medium","marker-symbol":"beer","Name":"Dirt Farm Brewing","Type":"Brewery"},"geometry":{"type":"Point","coordinates":[-77.8363698720932,39.09988046991529]}},{"type":"Feature","properties":{"marker-color":"#7e7e7e","marker-size":"medium","marker-symbol":"beer","Name":"Dynasty Brewing","Type":"Brewery"},"geometry":{"type":"Point","coordinates":[-77.44947731494904,39.03164432977289]}},{"type":"Feature","properties":{"marker-color":"#7e7e7e","marker-size":"medium","marker-symbol":"beer","Name":"Dynasty Brewing Company - Leesburg","Type":"Brewery"},"geometry":{"type":"Point","coordinates":[-77.56350338459015,39.1136296645895]}},{"type":"Feature","properties":{"marker-color":"#7e7e7e","marker-size":"medium","marker-symbol":"beer","Name":"Flying Ace Farm","Type":"Brewery"},"geometry":{"type":"Point","coordinates":[-77.58272945880888,39.27696148856164]}},{"type":"Feature","properties":{"marker-color":"#7e7e7e","marker-size":"medium","marker-symbol":"beer","Name":"Harpers Ferry Brewing","Type":"Brewery"},"geometry":{"type":"Point","coordinates":[-77.70839631557465,39.32059138562291]}},{"type":"Feature","properties":{"marker-color":"#7e7e7e","marker-size":"medium","marker-symbol":"beer","Name":"Harvest Gap Brewery","Type":"Brewery"},"geometry":{"type":"Point","coordinates":[-77.69689500331879,39.18852248752332]}},{"type":"Feature","properties":{"marker-color":"#7e7e7e","marker-size":"medium","marker-symbol":"alcohol-shop","Name":"Hillsborough Vineyards & Brewery","Type":["Winery","Brewery"]},"geometry":{"type":"Point","coordinates":[-77.73385047912598,39.20580435867922]}},{"type":"Feature","properties":{"marker-color":"#7e7e7e","marker-size":"medium","marker-symbol":"beer","Name":"House 6 Brewing Company","Type":"Brewery"},"geometry":{"type":"Point","coordinates":[-77.46383249759674,39.05686310712131]}},{"type":"Feature","properties":{"marker-color":"#7e7e7e","marker-size":"medium","marker-symbol":"beer","Name":"Lost Barrel Brewing","Type":"Brewery"},"geometry":{"type":"Point","coordinates":[-77.75588750839233,38.969298317199836]}},{"type":"Feature","properties":{"marker-color":"#7e7e7e","marker-size":"medium","marker-symbol":"beer","Name":"Lost Rhino Brewing Company","Type":"Brewery"},"geometry":{"type":"Point","coordinates":[-77.47556447982788,39.016086943181236]}},{"type":"Feature","properties":{"marker-color":"#7e7e7e","marker-size":"medium","marker-symbol":"beer","Name":"Loudoun Brewing Company","Type":"Brewery"},"geometry":{"type":"Point","coordinates":[-77.5590831041336,39.11282634915487]}},{"type":"Feature","properties":{"marker-color":"#7e7e7e","marker-size":"medium","marker-symbol":"beer","Name":"Notaviva Farm Brewery & Winery","Type":["Winery","Brewery"]},"geometry":{"type":"Point","coordinates":[-77.74783283472061,39.252901530948286]}},{"type":"Feature","properties":{"marker-color":"#7e7e7e","marker-size":"medium","marker-symbol":"beer","Name":"Ocelot Brewing Company","Type":"Brewery"},"geometry":{"type":"Point","coordinates":[-77.49925374984741,38.96299604238614]}},{"type":"Feature","properties":{"marker-color":"#7e7e7e","marker-size":"medium","marker-symbol":"beer","Name":"Old 690 Brewing Company","Type":"Brewery"},"geometry":{"type":"Point","coordinates":[-77.72713422775269,39.183537102181475]}},{"type":"Feature","properties":{"marker-color":"#7e7e7e","marker-size":"medium","marker-symbol":"beer","Name":"Old Ox Brewery","Type":"Brewery"},"geometry":{"type":"Point","coordinates":[-77.4551796913147,39.02396816882601]}},{"type":"Feature","properties":{"marker-color":"#7e7e7e","marker-size":"medium","marker-symbol":"beer","Name":"Old Ox Brewery - Middleburg","Type":"Brewery"},"geometry":{"type":"Point","coordinates":[-77.73535788059235,38.96840160152305]}},{"type":"Feature","properties":{"marker-color":"#7e7e7e","marker-size":"large","marker-symbol":"beer","Name":"Quattro Goombas Brewery","Type":"Brewery"},"geometry":{"type":"Point","coordinates":[-77.6173460483551,38.98574165239377]}},{"type":"Feature","properties":{"marker-color":"#7e7e7e","marker-size":"medium","marker-symbol":"beer","Name":"Rocket Frog Brewing","Type":"Brewery"},"geometry":{"type":"Point","coordinates":[-77.42469906806946,38.9949812724876]}},{"type":"Feature","properties":{"marker-color":"#7e7e7e","marker-size":"medium","marker-symbol":"beer","Name":"Solace Brewing Company","Type":"Brewery"},"geometry":{"type":"Point","coordinates":[-77.52820551395416,38.95088626006364]}},{"type":"Feature","properties":{"marker-color":"#7e7e7e","marker-size":"medium","marker-symbol":"beer","Name":"The Craft Of Brewing (TCOB) Brewery","Type":"Brewery"},"geometry":{"type":"Point","coordinates":[-77.44890868663788,39.0315901578337]}},{"type":"Feature","properties":{"marker-color":"#7e7e7e","marker-size":"medium","marker-symbol":"beer","Name":"Twinpanzee Brewing Co","Type":"Brewery"},"geometry":{"type":"Point","coordinates":[-77.44470834732054,38.98452406738994]}},{"type":"Feature","properties":{"marker-color":"#7e7e7e","marker-size":"medium","marker-symbol":"beer","Name":"Vanish Farmwoods Brewery","Type":"Brewery"},"geometry":{"type":"Point","coordinates":[-77.53798484802246,39.223169249570226]}},{"type":"Feature","properties":{"marker-color":"#7e7e7e","marker-size":"medium","marker-symbol":"beer","Name":"Wheatland Spring Farm + Brewery","Type":"Brewery"},"geometry":{"type":"Point","coordinates":[-77.67024457454681,39.20019247787109]}},{"type":"Feature","properties":{"marker-color":"#7e7e7e","marker-size":"medium","marker-symbol":"beer","Name":"Caboose Brewing Company & Tavern","Type":"Brewery"},"geometry":{"type":"Point","coordinates":[-77.2704291343689,38.907799047712516]}},{"type":"Feature","properties":{"marker-color":"#7e7e7e","marker-size":"medium","marker-symbol":"beer","Name":"Aslin Beer Company","Type":"Brewery"},"geometry":{"type":"Point","coordinates":[-77.13827133178711,38.80419937824178]}},{"type":"Feature","properties":{"marker-color":"#7e7e7e","marker-size":"medium","marker-symbol":"beer","Name":"Aslin Beer Company","Type":"Brewery"},"geometry":{"type":"Point","coordinates":[-77.38689467310905,38.96950164068725]}},{"type":"Feature","properties":{"marker-color":"#7e7e7e","marker-size":"medium","marker-symbol":"beer","Name":"2 Silos Brewing Co.","Type":"Brewery"},"geometry":{"type":"Point","coordinates":[-77.52161800861359,38.74237510699847]}},{"type":"Feature","properties":{"marker-color":"#7e7e7e","marker-size":"medium","marker-symbol":"beer","Name":"Port City Brewing Company","Type":"Brewery"},"geometry":{"type":"Point","coordinates":[-77.10145264863968,38.808030656053596]}},{"type":"Feature","properties":{"marker-color":"#7e7e7e","marker-size":"medium","marker-symbol":"beer","Name":"Eavesdrop Brewery","Type":"Brewery"},"geometry":{"type":"Point","coordinates":[-77.44587779045105,38.799188934853085]}},{"type":"Feature","properties":{"marker-color":"#7e7e7e","marker-size":"medium","marker-symbol":"beer","Name":"Chubby Squirrel Brewing Company","Type":"Brewery"},"geometry":{"type":"Point","coordinates":[-77.30328887701035,38.84866128444642]}},{"type":"Feature","properties":{"marker-color":"#7e7e7e","marker-size":"medium","marker-symbol":"beer","Name":"Mustang Sally Brewing","Type":"Brewery"},"geometry":{"type":"Point","coordinates":[-77.43736177682877,38.892924234286156]}},{"type":"Feature","properties":{"marker-color":"#7e7e7e","marker-size":"medium","marker-symbol":"beer","Name":"Water's End Brewery","Type":"Brewery"},"geometry":{"type":"Point","coordinates":[-77.31676161289215,38.684289121607385]}},{"type":"Feature","properties":{"marker-color":"#7e7e7e","marker-size":"medium","marker-symbol":"beer","Name":"Honor Brewing Company","Type":"Brewery"},"geometry":{"type":"Point","coordinates":[-77.43099689483643,38.88689389146653]}},{"type":"Feature","properties":{"marker-color":"#7e7e7e","marker-size":"medium","marker-symbol":"beer","Name":"Lake Anna Brew House","Type":"Brewery"},"geometry":{"type":"Point","coordinates":[-77.34115898609161,38.96828064830708]}},{"type":"Feature","properties":{"marker-color":"#7e7e7e","marker-size":"medium","marker-symbol":"beer","Name":"Solace Outpost","Type":"Brewery"},"geometry":{"type":"Point","coordinates":[-77.17697024345398,38.88623936440054]}},{"type":"Feature","properties":{"marker-color":"#7e7e7e","marker-size":"medium","marker-symbol":"beer","Name":"Fair Winds Brewing Company","Type":"Brewery"},"geometry":{"type":"Point","coordinates":[-77.18481302261353,38.73898801942805]}},{"type":"Feature","properties":{"marker-color":"#7e7e7e","marker-size":"medium","marker-symbol":"beer","Name":"Ono Brewing Company","Type":"Brewery"},"geometry":{"type":"Point","coordinates":[-77.4446439743042,38.883149330631035]}},{"type":"Feature","properties":{"marker-color":"#7e7e7e","marker-size":"medium","marker-symbol":"beer","Name":"Settle Down Easy Brewing Co.","Type":"Brewery"},"geometry":{"type":"Point","coordinates":[-77.20871686935425,38.87603339048073]}},{"type":"Feature","properties":{"marker-color":"#7e7e7e","marker-size":"medium","marker-symbol":"beer","Name":"Audacious Aleworks Brewery","Type":"Brewery"},"geometry":{"type":"Point","coordinates":[-77.1718767285347,38.88031494162303]}},{"type":"Feature","properties":{"marker-color":"#7e7e7e","marker-size":"medium","marker-symbol":"beer","Name":"Board Room Brewing Company","Type":"Brewery"},"geometry":{"type":"Point","coordinates":[-77.09294065833092,38.88416404572961]}},{"type":"Feature","properties":{"marker-color":"#7e7e7e","marker-size":"medium","marker-symbol":"beer","Name":"Lost Boy Cider","Type":" Cidery"},"geometry":{"type":"Point","coordinates":[-77.06330090761185,38.79878131132159]}},{"type":"Feature","properties":{"marker-color":"#7e7e7e","marker-size":"medium","marker-symbol":"beer","Name":"Altered Suds Beer Co.","Type":"Brewery"},"geometry":{"type":"Point","coordinates":[-77.79475271701813,38.71330452809823]}},{"type":"Feature","properties":{"marker-color":"#7e7e7e","marker-size":"medium","marker-symbol":"beer","Name":"Powers Farm & Brewery","Type":"Brewery"},"geometry":{"type":"Point","coordinates":[-77.73992568254471,38.65296205230462]}},{"type":"Feature","properties":{"marker-color":"#7e7e7e","marker-size":"medium","marker-symbol":"beer","Name":"Old Bust Head Brewing Company","Type":"Brewery"},"geometry":{"type":"Point","coordinates":[-77.6758074760437,38.744034072746516]}},{"type":"Feature","properties":{"marker-color":"#7e7e7e","marker-size":"medium","marker-symbol":"beer","Name":"Wort Hog Brewing Company","Type":"Brewery"},"geometry":{"type":"Point","coordinates":[-77.79543668031693,38.7119765783291]}},{"type":"Feature","properties":{"marker-color":"#7e7e7e","marker-size":"medium","marker-symbol":"beer","Name":"Wild Hare Cider Pub & Garden"},"geometry":{"type":"Point","coordinates":[-77.79374487698078,38.713047102410954]}},{"type":"Feature","properties":{"marker-color":"#7e7e7e","marker-size":"medium","marker-symbol":"beer","Name":"The Farm Brewery at Broad Run","Type":"Brewery"},"geometry":{"type":"Point","coordinates":[-77.66650557518004,38.8184908971866]}},{"type":"Feature","properties":{"marker-color":"#7e7e7e","marker-size":"medium","marker-symbol":"beer","Name":"Red Dragon Brewery","Type":"Brewery"},"geometry":{"type":"Point","coordinates":[-77.46322631835938,38.30797193450521]}},{"type":"Feature","properties":{"marker-color":"#7e7e7e","marker-size":"medium","marker-symbol":"beer","Name":" Maltese Brewing Company","Type":"Brewery"},"geometry":{"type":"Point","coordinates":[-77.43688434362411,38.26094921532897]}},{"type":"Feature","properties":{"marker-color":"#7e7e7e","marker-size":"medium","marker-symbol":"beer","Name":"Strangeways Brewing","Type":"Brewery"},"geometry":{"type":"Point","coordinates":[-77.45624989271163,38.273001235682585]}},{"type":"Feature","properties":{"marker-color":"#7e7e7e","marker-size":"medium","marker-symbol":"beer","Name":"6 Bears & A Goat Brewing Company"},"geometry":{"type":"Point","coordinates":[-77.51415073871613,38.36247166463271]}},{"type":"Feature","properties":{"marker-color":"#7e7e7e","marker-size":"medium","marker-symbol":"beer","Name":"Adventure Brewing Company","Type":"Brewery"},"geometry":{"type":"Point","coordinates":[-77.44086742401123,38.384323992779585]}},{"type":"Feature","properties":{"marker-color":"#7e7e7e","marker-size":"medium","marker-symbol":"beer","Name":"Highmark Brewery","Type":"Brewery"},"geometry":{"type":"Point","coordinates":[-77.43968456983566,38.28779555138383]}},{"type":"Feature","properties":{"marker-color":"#7e7e7e","marker-size":"medium","marker-symbol":"beer","Name":"Tucked Away Brewing","Type":"Brewery"},"geometry":{"type":"Point","coordinates":[-77.44940757751465,38.76149166980161]}},{"type":"Feature","properties":{"marker-color":"#7e7e7e","marker-size":"medium","marker-symbol":"beer","Name":"Cedar Run Brewery","Type":"Brewery"},"geometry":{"type":"Point","coordinates":[-77.57695198059082,38.64503125499879]}},{"type":"Feature","properties":{"marker-color":"#7e7e7e","marker-size":"medium","marker-symbol":"beer","Name":"Public House Kitchen & Brewery","Type":"Brewery"},"geometry":{"type":"Point","coordinates":[-77.4726589769125,38.751344150547666]}},{"type":"Feature","properties":{"marker-color":"#7e7e7e","marker-size":"medium","marker-symbol":"beer","Name":"Sinistral Brewing Company","Type":"Brewery"},"geometry":{"type":"Point","coordinates":[-77.47122332453728,38.750640265192125]}},{"type":"Feature","properties":{"marker-color":"#7e7e7e","marker-size":"medium","marker-symbol":"beer","Name":"Brew Republic Bierwerks","Type":"Brewery"},"geometry":{"type":"Point","coordinates":[-77.28687912225723,38.62728956949145]}},{"type":"Feature","properties":{"marker-color":"#7e7e7e","marker-size":"medium","marker-symbol":"beer","Name":"Ornery Beer Company","Type":"Brewery"},"geometry":{"type":"Point","coordinates":[-77.30520129203796,38.847053842993425]}},{"type":"Feature","properties":{"marker-color":"#7e7e7e","marker-size":"medium","marker-symbol":"beer","Name":"Tin Cannon Brewing Co.","Type":"Brewery"},"geometry":{"type":"Point","coordinates":[-77.59684056043625,38.79027085378248]}},{"type":"Feature","properties":{"marker-color":"#7e7e7e","marker-size":"medium","marker-symbol":"beer","Name":"BadWolf Brewing Company","Type":"Brewery"},"geometry":{"type":"Point","coordinates":[-77.49009937047958,38.75414393487828]}},{"type":"Feature","properties":{"marker-color":"#7e7e7e","marker-size":"medium","marker-symbol":"beer","Name":"Barley Naked Brewing Co.","Type":" Brewery"},"geometry":{"type":"Point","coordinates":[-77.4740195274353,38.4799594954741]}},{"type":"Feature","properties":{"marker-color":"#7e7e7e","marker-size":"medium","marker-symbol":"beer","Name":"1781 Brewing Company","Type":"Brewery"},"geometry":{"type":"Point","coordinates":[-77.71897494792938,38.327208472214316]}},{"type":"Feature","properties":{"marker-color":"#7e7e7e","marker-size":"medium","marker-symbol":"beer","Name":"Pen Druid Brewing","Type":"Brewery"},"geometry":{"type":"Point","coordinates":[-78.21237802505493,38.651835119827666]}},{"type":"Feature","properties":{"marker-color":"#7e7e7e","marker-size":"medium","marker-symbol":"beer","Name":"Hopkins Ordinary Ale Works","Type":"Brewery"},"geometry":{"type":"Point","coordinates":[-78.22695851325989,38.65776597914933]}},{"type":"Feature","properties":{"marker-color":"#7e7e7e","marker-size":"medium","marker-symbol":"beer","Name":"Far Gohn Brewing Company","Type":"Brewery"},"geometry":{"type":"Point","coordinates":[-77.99492329359055,38.47154444639568]}},{"type":"Feature","properties":{"marker-color":"#7e7e7e","marker-size":"medium","marker-symbol":"beer","Name":"Old Trade Brewery","Type":"Brewery"},"geometry":{"type":"Point","coordinates":[-77.90770053863524,38.51873896215379]}},{"type":"Feature","properties":{"marker-color":"#7e7e7e","marker-size":"medium","marker-symbol":"beer","Name":"New District Brewing Company","Type":"Brewery"},"geometry":{"type":"Point","coordinates":[-77.08964824676514,38.84358502979058]}},{"type":"Feature","properties":{"marker-color":"#7e7e7e","marker-size":"medium","marker-symbol":"beer","Name":"Bike Lane Brewing Company","Type":"Brewery"},"geometry":{"type":"Point","coordinates":[-77.33049452304839,38.9482579596209]}},{"type":"Feature","properties":{"marker-color":"#7e7e7e","marker-size":"medium","marker-symbol":"beer","Name":"G34.3 Brewing Company ","Type":"Brewery"},"geometry":{"type":"Point","coordinates":[-77.19680786132812,38.72760170877996]}},{"type":"Feature","properties":{"marker-color":"#7e7e7e","marker-size":"medium","marker-symbol":"beer","Name":"Barking Rose Brewing Company + Farm","Type":"Brewery"},"geometry":{"type":"Point","coordinates":[-77.79867947101593,38.663742422868104]}}]}